,City,Country,Lat,Lng,Max Temp,Humidity,Cloudiness,Wind Speed,Current Description
0,Divnomorskoye,RU,44.5011,38.1353,57.81,88,100,17.52,overcast clouds
1,Butaritari,KI,3.0707,172.7902,82.29,74,74,16.64,broken clouds
2,Yellowknife,CA,62.456,-114.3525,-17.88,76,1,8.05,clear sky
3,Albany,US,42.6001,-73.9662,26.47,73,53,5.1,broken clouds
4,Rikitea,PF,-23.1203,-134.9692,76.39,79,74,16.4,broken clouds
5,Busselton,AU,-33.65,115.3333,84.15,38,71,14.0,broken clouds
6,Cairns,AU,-16.9167,145.7667,85.95,74,47,6.91,light rain
7,Vaini,TO,-21.2,-175.2,80.76,89,75,10.36,light rain
8,Saskylakh,RU,71.9167,114.0833,-4.68,93,99,10.07,overcast clouds
9,Esperance,AU,-33.8667,121.9,93.04,40,1,7.49,clear sky
10,Barrow,US,71.2906,-156.7887,-5.78,77,90,10.36,haze
11,Bredasdorp,ZA,-34.5322,20.0403,67.15,76,88,16.42,overcast clouds
12,Baykit,RU,61.67,96.37,5.02,95,100,2.21,overcast clouds
13,Ust-Maya,RU,60.4167,134.5333,5.97,88,100,7.76,overcast clouds
14,Bethel,US,41.3712,-73.414,34.16,55,20,5.75,few clouds
15,Eura,FI,61.1333,22.1333,17.82,78,100,7.02,overcast clouds
16,Victoria,HK,22.2855,114.1577,77.05,48,76,4.81,broken clouds
17,Bluff,NZ,-46.6,168.3333,55.63,55,3,4.25,clear sky
18,Kahului,US,20.8947,-156.47,75.22,73,90,11.5,overcast clouds
19,Ushuaia,AR,-54.8,-68.3,49.66,57,75,18.41,light rain
20,Katsuura,JP,35.1333,140.3,59.11,39,0,10.71,clear sky
21,Khatanga,RU,71.9667,102.5,-8.32,96,100,12.37,overcast clouds
22,Bathsheba,BB,13.2167,-59.5167,81.21,78,40,13.8,scattered clouds
23,Hilo,US,19.7297,-155.09,73.13,88,90,0.0,light rain
24,Oblivskaya,RU,48.5362,42.5014,42.31,96,98,9.8,overcast clouds
25,Mahebourg,MU,-20.4081,57.7,84.49,58,20,10.36,few clouds
26,Bengkulu,ID,-3.8004,102.2655,82.8,69,100,5.28,overcast clouds
27,Nago,JP,26.5881,127.9761,73.47,56,100,20.09,overcast clouds
28,Mar Del Plata,AR,-38.0023,-57.5575,62.62,94,0,11.5,light rain
29,Kavieng,PG,-2.5744,150.7967,84.99,65,83,3.96,light rain
30,Hokitika,NZ,-42.7167,170.9667,62.46,81,98,5.37,overcast clouds
31,Mataura,NZ,-46.1927,168.8643,66.88,35,0,6.04,clear sky
32,Saint George,US,37.1041,-113.5841,46.99,29,1,3.44,clear sky
33,Ust-Ordynskiy,RU,52.805,104.7508,19.24,76,37,3.65,scattered clouds
34,Cape Town,ZA,-33.9258,18.4232,63.01,100,90,11.5,light rain
35,Port Alfred,ZA,-33.5906,26.891,70.66,62,51,8.7,broken clouds
36,Zenzeli,RU,45.9241,47.0474,43.29,93,99,8.9,overcast clouds
37,Flinders,AU,-34.5833,150.8552,63.68,68,83,11.14,broken clouds
38,Waingapu,ID,-9.6567,120.2641,82.54,75,100,4.68,overcast clouds
39,Puerto Ayora,EC,-0.7393,-90.3518,68.43,81,92,7.52,overcast clouds
40,Qaanaaq,GL,77.484,-69.3632,-3.71,97,98,2.53,overcast clouds
41,Ribeira Grande,PT,38.5167,-28.7,61.3,62,62,5.17,broken clouds
42,George Town,MY,5.4112,100.3354,87.73,74,40,4.61,scattered clouds
43,Strangnas,SE,59.3774,17.0312,28.4,61,100,10.71,overcast clouds
44,Lufilufi,WS,-13.8745,-171.5986,83.98,79,92,14.03,light rain
45,Erzin,TR,36.9559,36.2,55.92,60,100,4.92,light rain
46,Hobart,AU,-42.8794,147.3294,64.26,63,20,18.41,few clouds
47,Bambous Virieux,MU,-20.3428,57.7575,84.45,58,20,10.36,few clouds
48,Lebu,CL,-37.6167,-73.65,50.47,76,0,16.26,clear sky
49,Fairbanks,US,64.8378,-147.7164,-16.64,69,90,0.0,haze
50,Kodiak,US,57.79,-152.4072,17.11,53,1,13.8,clear sky
51,Camana,PE,-16.6228,-72.7111,65.44,88,53,7.05,broken clouds
52,Itambe,BR,-15.245,-40.6244,68.77,99,100,1.01,heavy intensity rain
53,Cabo San Lucas,MX,22.8909,-109.9124,72.7,77,100,8.08,overcast clouds
54,Sekoma,BW,-24.4,23.8833,67.15,64,62,17.43,broken clouds
55,Sorong,ID,-0.8833,131.25,84.58,73,59,8.77,broken clouds
56,Hubli,IN,15.35,75.1667,77.04,57,94,10.36,overcast clouds
57,Roald,NO,62.5833,6.1333,24.94,80,11,11.5,few clouds
58,Touros,BR,-5.1989,-35.4608,79.7,73,96,11.5,overcast clouds
59,Toronto,CA,43.7001,-79.4163,31.39,70,90,3.44,light snow
60,Hermanus,ZA,-34.4187,19.2345,65.16,88,98,13.69,light rain
61,Tasiilaq,GL,65.6145,-37.6368,26.76,93,100,6.46,snow
62,Port-Cartier,CA,50.0334,-66.8654,32.22,84,100,13.0,overcast clouds
63,Jamestown,US,42.097,-79.2353,31.32,93,90,6.91,light snow
64,Tuktoyaktuk,CA,69.4541,-133.0374,-9.4,77,90,21.85,light snow
65,Rocha,UY,-34.4833,-54.3333,62.28,95,100,1.45,overcast clouds
66,Yar-Sale,RU,66.8333,70.8333,-10.66,97,56,9.78,broken clouds
67,Diamantino,BR,-14.4086,-56.4461,74.17,86,100,4.32,overcast clouds
68,Punta Arenas,CL,-53.15,-70.9167,50.11,57,90,11.5,overcast clouds
69,Sitka,US,57.0531,-135.33,35.49,87,90,3.44,light rain
70,New Norfolk,AU,-42.7826,147.0587,63.9,42,1,5.61,clear sky
71,Novyy Yarychiv,UA,49.9044,24.3052,40.33,96,100,7.81,overcast clouds
72,Aborlan,PH,9.4352,118.5492,84.83,74,98,6.8,overcast clouds
73,Bronnoysund,NO,65.4625,12.1997,19.4,68,3,5.75,clear sky
74,Bollnas,SE,61.3482,16.3946,26.55,91,100,4.45,overcast clouds
75,Hwange,ZW,-18.3693,26.5019,74.95,60,19,10.38,few clouds
76,East London,ZA,-33.0153,27.9116,68.94,77,0,5.75,clear sky
77,Leningradskiy,RU,69.3833,178.4167,-20.47,91,21,10.02,few clouds
78,Carnarvon,AU,-24.8667,113.6333,89.67,48,0,14.97,clear sky
79,Kapaa,US,22.0752,-159.319,75.18,73,1,8.05,clear sky
80,Tiksi,RU,71.6872,128.8694,-8.45,97,100,6.42,overcast clouds
81,Susanville,US,40.4163,-120.653,44.85,53,82,0.36,broken clouds
82,Smithers,CA,54.7804,-127.1743,32.32,86,90,11.5,overcast clouds
83,Manuk Mangkaw,PH,4.8,119.85,83.55,72,100,6.91,overcast clouds
84,Tautira,PF,-17.7333,-149.15,80.62,79,44,17.98,light rain
85,Xining,CN,36.6167,101.7667,34.23,49,98,7.94,overcast clouds
86,Tabou,CI,4.423,-7.3528,78.69,86,20,6.89,few clouds
87,Darhan,MN,49.4867,105.9228,16.2,73,10,7.47,clear sky
88,Pevek,RU,69.7008,170.3133,-12.64,84,13,3.0,few clouds
89,Torbay,CA,47.6666,-52.7314,47.17,87,90,13.8,overcast clouds
90,Clyde River,CA,70.4692,-68.5914,-9.22,97,96,7.07,overcast clouds
91,Yerbogachen,RU,61.2767,108.0108,6.85,91,100,7.67,overcast clouds
92,Svetlogorsk,BY,52.6333,29.7333,31.46,92,58,5.28,broken clouds
93,Baldeogarh,IN,24.755,79.0681,75.52,30,3,4.41,clear sky
94,Shimoda,JP,34.6667,138.95,55.76,46,11,1.48,few clouds
95,Balkanabat,TM,39.5108,54.3671,52.34,43,4,5.1,clear sky
96,Harper,LR,4.375,-7.7169,79.05,84,32,6.64,scattered clouds
97,Chuy,UY,-33.6971,-53.4616,67.14,86,100,5.32,overcast clouds
98,Fortuna,US,40.5982,-124.1573,48.54,93,49,2.91,scattered clouds
99,Chunskiy,RU,56.0815,99.6342,19.63,87,100,10.16,overcast clouds
100,Liverpool,GB,53.4106,-2.9779,33.75,64,88,5.75,overcast clouds
101,Lima,PE,-12.0432,-77.0282,64.65,82,90,9.22,overcast clouds
102,Paulista,BR,-7.9408,-34.8731,80.46,68,96,7.94,overcast clouds
103,Laguna,US,38.421,-121.4238,57.7,87,1,0.0,mist
104,Fereydunshahr,IR,32.941,50.121,39.15,51,99,1.77,overcast clouds
105,Los Llanos De Aridane,ES,28.6585,-17.9182,60.55,63,75,12.66,broken clouds
106,Mulege,MX,26.8833,-111.9833,66.15,72,93,4.99,overcast clouds
107,Zaigrayevo,RU,51.8336,108.2703,7.86,58,8,4.03,clear sky
108,Haines Junction,CA,60.7522,-137.5108,-5.85,71,100,6.91,overcast clouds
109,Cayenne,GF,4.9333,-52.3333,75.24,100,75,0.0,broken clouds
110,Cuamba,MZ,-14.8031,36.5372,69.51,69,35,4.0,scattered clouds
111,Opuwo,NA,-18.0607,13.84,70.56,24,55,2.98,broken clouds
112,Bayanday,RU,53.0661,105.5139,12.74,67,44,2.42,scattered clouds
113,Half Moon Bay,US,37.4636,-122.4286,58.78,67,1,5.75,clear sky
114,Puerto Leguizamo,CO,-0.1934,-74.7819,76.17,81,99,2.89,overcast clouds
115,Port Lincoln,AU,-34.7333,135.8667,68.58,54,1,8.9,clear sky
116,Namatanai,PG,-3.6667,152.4333,84.65,68,99,3.38,light rain
117,Chernyshevskiy,RU,63.0128,112.4714,0.16,94,100,7.29,overcast clouds
118,Thompson,CA,55.7435,-97.8558,17.76,79,90,9.22,light snow
119,Bac Lieu,VN,9.285,105.7244,78.12,83,100,14.16,light rain
120,Mount Isa,AU,-20.7333,139.5,94.77,16,0,6.91,clear sky
121,Muros,ES,42.7762,-9.0603,41.5,73,26,9.55,scattered clouds
122,Elko,US,41.0002,-115.5012,30.22,40,14,2.13,few clouds
123,Cockburn Town,TC,21.4612,-71.1419,77.16,74,41,10.45,scattered clouds
124,Ladario,BR,-19.0047,-57.6017,76.5,73,50,2.48,scattered clouds
125,Qui Nhon,VN,13.7667,109.2333,77.2,93,100,16.2,overcast clouds
126,Bogorodsk,RU,56.1033,43.5158,34.95,99,100,13.82,overcast clouds
127,Atuona,PF,-9.8,-139.0333,78.73,73,100,19.15,overcast clouds
128,Souillac,MU,-20.5167,57.5167,84.58,58,20,10.36,few clouds
129,Port Augusta,AU,-32.5,137.7667,80.74,25,22,11.27,few clouds
130,Lavrentiya,RU,65.5833,-171.0,-10.98,94,6,7.25,clear sky
131,Erenhot,CN,43.6475,111.9767,30.99,58,7,16.71,clear sky
132,Buala,SB,-8.145,159.5921,84.85,70,73,5.19,light rain
133,Avarua,CK,-21.2078,-159.775,75.25,83,75,3.44,broken clouds
134,Salalah,OM,17.0151,54.0924,82.49,30,0,4.61,clear sky
135,Mweka,CD,-4.85,21.5667,67.15,100,100,1.36,light rain
136,Praia,CV,14.9215,-23.5087,75.74,69,40,21.85,scattered clouds
137,San Patricio,US,28.017,-97.5169,53.58,88,100,8.48,overcast clouds
138,Kavaratti,IN,10.5669,72.642,83.1,68,98,8.55,light rain
139,Qaqortoq,GL,60.7167,-46.0333,39.7,100,100,5.53,light rain
140,Hauterive,FR,46.0901,3.4459,38.16,98,100,14.0,overcast clouds
141,Luba,GQ,3.4568,8.5547,80.6,79,100,4.18,light rain
142,Marsh Harbour,BS,26.5412,-77.0636,71.74,66,13,6.58,few clouds
143,Potsdam,DE,52.3989,13.0657,33.93,93,58,5.84,broken clouds
144,Aykhal,RU,66.0,111.5,-17.23,99,96,7.96,overcast clouds
145,Imperia,IT,43.9667,7.7833,39.2,71,1,5.3,clear sky
146,Mendi,PG,-6.1761,143.6513,62.11,94,90,3.11,overcast clouds
147,Georgetown,MY,5.4112,100.3354,87.73,74,40,4.61,scattered clouds
148,Naze,JP,28.3667,129.4833,65.32,56,24,16.8,few clouds
149,Umm Lajj,SA,25.0213,37.2685,79.84,45,4,3.06,clear sky
150,Killybegs,IE,54.6333,-8.45,40.86,94,100,5.66,overcast clouds
151,Upernavik,GL,72.7868,-56.1549,-3.23,86,27,10.4,scattered clouds
152,Nanortalik,GL,60.1432,-45.2371,42.06,97,100,12.41,light rain
153,Henties Bay,NA,-22.116,14.2845,58.82,85,0,4.0,clear sky
154,Amurrio,ES,43.05,-3.0,42.42,98,100,6.24,light rain
155,Bakurianis Andeziti,GE,41.7337,43.4724,39.04,73,99,5.97,overcast clouds
156,Todos Santos,MX,23.45,-110.2167,72.19,78,100,2.73,overcast clouds
157,Lazaro Cardenas,MX,17.9583,-102.2,74.03,84,3,4.99,clear sky
158,Dahuk,IQ,36.8695,42.994,53.94,52,98,1.83,overcast clouds
159,Siocon,PH,7.7061,122.1353,84.83,73,100,3.94,overcast clouds
160,Oranjemund,NA,-28.55,16.4333,62.62,79,95,3.38,overcast clouds
161,Glencoe,ZA,-28.1783,30.147,62.65,70,100,5.91,overcast clouds
162,Kloulklubed,PW,7.0419,134.2556,84.7,75,100,14.18,light rain
163,Okhotsk,RU,59.3833,143.3,3.51,71,4,17.92,clear sky
164,Port Blair,IN,11.6667,92.75,84.22,68,24,14.36,few clouds
165,Puerto Escondido,MX,15.85,-97.0667,77.18,62,61,4.5,broken clouds
166,Anadyr,RU,64.75,177.4833,-5.3,77,90,2.24,light snow
167,Bongouanou,CI,6.6486,-4.1992,70.97,99,63,1.88,broken clouds
168,Constitucion,CL,-35.3333,-72.4167,51.46,82,0,8.81,clear sky
169,Arraial Do Cabo,BR,-22.9661,-42.0278,72.82,87,24,2.68,few clouds
170,Cidreira,BR,-30.1811,-50.2056,69.44,95,93,2.91,overcast clouds
171,Nome,US,64.5011,-165.4064,-18.33,76,1,0.0,clear sky
172,Te Anau,NZ,-45.4167,167.7167,67.06,38,0,1.83,clear sky
173,Codrington,AU,-38.2667,141.9667,64.0,62,0,14.56,clear sky
174,Castro,BR,-24.7911,-50.0119,59.99,84,0,2.44,clear sky
175,Kattivakkam,IN,13.2167,80.3167,84.29,79,100,6.08,overcast clouds
176,Labuhan,ID,-6.8844,112.2051,81.0,72,100,6.17,overcast clouds
177,San Ramon,US,37.7799,-121.978,57.29,65,1,4.61,clear sky
178,Dikson,RU,73.5069,80.5464,-13.85,97,100,9.48,overcast clouds
179,Longyearbyen,SJ,78.2186,15.6401,10.24,61,20,27.63,few clouds
180,General Roca,AR,-39.0333,-67.5833,63.0,63,34,2.28,scattered clouds
181,Okha,RU,53.5739,142.9478,27.95,70,84,13.06,broken clouds
182,Carballo,ES,43.213,-8.691,40.42,84,78,6.2,broken clouds
183,Bastrop,US,32.7562,-91.8724,49.68,63,100,4.63,overcast clouds
184,Saint-Philippe,RE,-21.3585,55.7679,81.95,81,93,3.42,light rain
185,Lata,PT,40.1629,-8.3327,36.01,88,6,3.42,clear sky
186,Karratha,AU,-20.7377,116.8463,95.5,27,0,19.19,clear sky
187,Madanapalle,IN,13.55,78.5,69.33,95,100,6.17,light rain
188,Port Elizabeth,ZA,-33.918,25.5701,71.89,56,0,6.91,clear sky
189,Kaitangata,NZ,-46.2817,169.8464,58.33,68,0,5.12,clear sky
190,Bereda,ES,43.2686,-7.5406,35.35,94,95,2.62,overcast clouds
191,Zheleznodorozhnyy,RU,55.7503,38.0042,41.52,85,100,10.2,overcast clouds
192,Hithadhoo,MV,-0.6,73.0833,82.02,72,100,17.92,overcast clouds
193,Lompoc,US,34.6391,-120.4579,53.91,69,1,5.75,clear sky
194,Chokurdakh,RU,70.6333,147.9167,-32.04,99,100,1.1,overcast clouds
195,Ostersund,SE,63.1792,14.6357,12.65,100,90,3.44,overcast clouds
196,Mersing,MY,2.4312,103.8405,91.31,62,20,4.61,few clouds
197,Alekseyevsk,RU,57.8406,108.3492,13.86,92,100,11.52,light snow
198,Burns Lake,CA,54.2331,-125.7533,27.82,97,93,2.71,overcast clouds
199,Anse-Bertrand,GP,16.4721,-61.5078,76.82,80,89,10.83,overcast clouds
200,Adrar,MR,20.5022,-10.0711,60.04,42,77,14.54,broken clouds
201,Saint-Leu,RE,-21.15,55.2833,81.43,80,93,2.98,light rain
202,Coquimbo,CL,-29.9533,-71.3436,56.93,88,0,2.3,clear sky
203,Portland,US,45.5234,-122.6762,64.38,79,90,12.66,overcast clouds
204,Sar-E Pul,AF,35.8333,66.1667,46.89,40,37,1.23,scattered clouds
205,Aklavik,CA,68.2191,-135.0107,-13.97,83,95,16.67,overcast clouds
206,Basco,PH,20.4487,121.9702,77.45,85,100,29.04,overcast clouds
207,Asau,RO,46.4333,26.4,32.92,80,48,4.32,scattered clouds
208,Osmena,PH,10.5208,119.9258,82.98,79,99,12.62,light rain
209,Faanui,PF,-16.4833,-151.75,81.05,75,37,11.81,scattered clouds
210,Fort Frances,CA,48.5999,-93.4003,28.62,69,90,10.36,overcast clouds
211,Bilma,NE,18.6853,12.9164,71.28,19,79,7.16,broken clouds
212,Kimbe,PG,-5.5502,150.1429,84.43,72,63,3.67,light rain
213,Mackenzie,CA,55.2999,-123.1698,34.02,93,90,6.91,overcast clouds
214,Beringovskiy,RU,63.05,179.3167,1.63,98,96,6.02,overcast clouds
215,Tabuk,PH,17.4189,121.4443,80.51,77,86,8.41,overcast clouds
216,Kinablangan,PH,7.6947,126.5503,82.89,77,85,5.61,overcast clouds
217,Taihe,CN,30.8712,105.3845,58.91,61,99,1.16,overcast clouds
218,Isangel,VU,-19.55,169.2667,82.51,78,75,9.22,broken clouds
219,Havelock,US,34.8791,-76.9013,39.18,51,56,5.17,broken clouds
220,Chernyanka,RU,50.9409,37.8069,43.02,96,100,6.6,overcast clouds
221,Pozo Colorado,PY,-23.4923,-58.7972,75.81,52,14,5.12,few clouds
222,Angoche,MZ,-16.2325,39.9086,78.84,55,98,12.26,overcast clouds
223,Calamar,CO,10.2511,-74.9146,78.75,95,91,3.15,overcast clouds
224,Westport,US,41.1415,-73.3579,35.74,59,1,4.61,clear sky
225,Changji,CN,44.0167,87.3167,32.79,40,0,4.47,clear sky
226,Orcopampa,PE,-15.2661,-72.3417,44.13,74,93,0.76,overcast clouds
227,Novopokrovskaya,RU,45.9514,40.7006,48.16,88,100,6.24,overcast clouds
228,Airai,TL,-8.9266,125.4092,70.23,74,97,1.95,overcast clouds
229,Gornopravdinsk,RU,60.05,69.9,22.39,96,91,8.1,overcast clouds
230,Bam,IR,29.106,58.357,65.59,27,0,3.15,clear sky
231,Fairlie,GB,55.756,-4.8556,35.51,73,100,6.49,light snow
232,Talnakh,RU,69.4865,88.3972,-3.42,98,100,6.08,overcast clouds
233,Saldanha,ZA,-33.0117,17.9442,62.65,91,90,11.32,overcast clouds
234,Najran,SA,17.4924,44.1277,65.05,33,1,5.28,clear sky
235,Avanigadda,IN,16.0215,80.9181,80.74,79,100,11.36,moderate rain
236,Coihaique,CL,-45.5752,-72.0662,48.15,66,75,4.61,broken clouds
237,Kirakira,SB,-10.4544,161.9205,83.5,73,69,4.9,broken clouds
238,Severo-Kurilsk,RU,50.6789,156.125,30.49,70,90,27.72,overcast clouds
239,Homer,US,59.6425,-151.5483,15.67,67,90,5.75,overcast clouds
240,Gravdal,NO,68.1214,13.5031,32.79,76,97,14.38,light snow
241,Bud,US,39.447,-86.1758,42.89,88,26,9.19,scattered clouds
242,Alcaniz,ES,41.05,-0.1333,39.81,74,26,30.15,scattered clouds
243,College,US,64.8569,-147.8028,-13.34,69,75,0.0,light snow
244,Ponta Do Sol,PT,32.6667,-17.1,65.03,74,48,6.49,scattered clouds
245,Misawa,JP,40.6836,141.3597,44.67,56,39,13.24,scattered clouds
246,Juneau,US,58.3019,-134.4197,32.05,86,90,3.44,snow
247,Grindavik,IS,63.8424,-22.4338,36.07,100,90,9.22,light intensity drizzle
248,Luau,AO,-10.7073,22.2247,67.42,90,84,3.91,broken clouds
249,Kousseri,CM,12.0769,15.0306,62.56,27,60,6.91,broken clouds
250,Lagoa,PT,39.05,-27.9833,61.16,60,97,6.82,overcast clouds
251,Bosaso,SO,11.2842,49.1816,80.58,78,40,10.36,scattered clouds
252,Guaratinga,BR,-16.5667,-39.5667,70.47,97,100,5.12,light rain
253,Skjervoy,NO,70.0311,20.9714,20.12,78,21,19.44,few clouds
254,Bairiki,KI,1.3292,172.9752,86.0,66,20,12.66,few clouds
255,Berlevag,NO,70.8578,29.0864,10.35,67,0,9.22,clear sky
256,Natal,BR,-5.795,-35.2094,79.45,89,40,3.44,scattered clouds
257,Yulara,AU,-25.2406,130.9889,85.84,14,0,11.5,clear sky
258,Singaraja,ID,-8.112,115.0882,80.69,83,100,2.04,light rain
259,Geraldton,AU,-28.7667,114.6,88.21,30,0,12.66,clear sky
260,Burkburnett,US,34.0979,-98.5706,50.72,100,1,9.22,clear sky
261,Coruripe,BR,-10.1256,-36.1756,77.45,79,89,11.34,light rain
262,Margate,GB,51.3813,1.3862,37.11,90,100,29.75,overcast clouds
263,Ulaangom,MN,49.9811,92.0667,17.49,69,89,1.63,overcast clouds
264,Prudentopolis,BR,-25.2131,-50.9778,60.22,95,0,2.39,clear sky
265,Odweyne,SO,9.4092,45.064,79.25,27,36,15.77,scattered clouds
266,Srednekolymsk,RU,67.45,153.6833,-38.81,99,47,5.46,scattered clouds
267,Marzuq,YE,14.4,46.4667,71.92,28,0,6.15,clear sky
268,Port Moresby,PG,-9.4431,147.1797,89.02,70,40,17.27,scattered clouds
269,Vaitape,PF,-16.5167,-151.75,80.98,75,38,11.77,scattered clouds
270,Windsor Locks,US,41.9293,-72.6273,30.65,59,75,6.91,broken clouds
271,Vao,NC,-22.6667,167.4833,75.29,87,93,17.45,moderate rain
272,Velvary,CZ,50.2815,14.2362,33.1,83,96,1.86,overcast clouds
273,Mareeba,AU,-17.0,145.4333,81.32,55,62,8.28,broken clouds
274,Mocuba,MZ,-16.8392,36.9856,74.05,63,28,3.33,scattered clouds
275,Port Macquarie,AU,-31.4333,152.9167,66.16,73,100,10.63,overcast clouds
276,Chokwe,MZ,-24.5333,32.9833,75.02,49,5,7.99,clear sky
277,Damietta,EG,31.4165,31.8133,69.84,46,21,7.16,few clouds
278,Ubinskoye,RU,55.3068,79.6802,22.15,94,100,13.94,overcast clouds
279,Vila Franca Do Campo,PT,37.7167,-25.4333,59.41,70,64,6.49,broken clouds
280,Bose,IT,45.4612,8.0137,35.19,67,96,3.27,overcast clouds
281,Iqaluit,CA,63.7506,-68.5145,24.53,58,90,12.66,light snow
282,Guerrero Negro,MX,27.9769,-114.0611,65.66,70,0,8.03,clear sky
283,Beisfjord,NO,68.3751,17.5988,14.05,75,15,9.91,few clouds
284,Leh,IN,34.1667,77.5833,21.56,65,46,0.87,scattered clouds
285,Pamekasan,ID,-7.1568,113.4746,79.16,85,100,8.34,light rain
286,Ostrovnoy,RU,68.0531,39.5131,6.66,94,86,7.25,overcast clouds
287,Bagdarin,RU,54.4333,113.6,7.75,71,6,2.39,clear sky
288,Mitsamiouli,KM,-11.3847,43.2844,80.89,83,20,11.5,moderate rain
289,Lewistown,US,40.5992,-77.5714,33.21,100,90,0.0,mist
290,Dunedin,NZ,-45.8742,170.5036,57.65,79,0,12.59,clear sky
291,Alenquer,BR,-1.9417,-54.7383,77.34,78,18,2.66,few clouds
292,Komsomolskiy,UZ,40.4272,71.7189,43.52,65,43,0.0,scattered clouds
293,Kabo,CF,7.6994,18.629,73.44,26,93,2.06,overcast clouds
294,Sawtell,AU,-30.3833,153.1,75.52,68,40,17.27,light rain
295,Ananas,HT,19.2466,-71.9557,64.2,95,17,2.1,few clouds
296,Dalen,NL,52.6992,6.7556,35.71,96,100,4.99,overcast clouds
297,Batemans Bay,AU,-35.7167,150.1833,62.02,64,89,7.07,overcast clouds
298,Tiarei,PF,-17.5333,-149.3333,80.62,79,29,16.49,light rain
299,Saint Anthony,US,45.0205,-93.218,33.73,69,1,10.36,clear sky
300,Iaciara,BR,-14.0958,-46.6317,67.98,95,48,3.29,scattered clouds
301,Vanimo,PG,-2.6741,141.3028,86.43,62,76,4.43,broken clouds
302,San Quintin,MX,30.4833,-115.95,60.82,68,0,2.66,clear sky
303,Clarence Town,AU,-32.5833,151.7833,67.91,83,100,6.53,overcast clouds
304,Provideniya,RU,64.3833,-173.3,-6.07,81,11,5.1,few clouds
305,Kolobrzeg,PL,54.1757,15.5834,37.4,97,100,13.49,overcast clouds
306,Mogadishu,SO,2.0371,45.3438,82.27,78,20,2.3,few clouds
307,The Valley,AI,18.217,-63.0578,78.66,72,3,13.2,clear sky
308,Saint-Ambroise,CA,48.5501,-71.3324,23.54,86,100,14.58,light snow
309,Baghdad,IQ,33.3406,44.4009,53.51,62,0,5.75,clear sky
310,Lebanon,US,36.2081,-86.2911,46.45,69,75,0.0,broken clouds
311,Ponta Delgada,PT,37.7333,-25.6667,59.72,72,75,3.44,broken clouds
312,Ende,ID,-8.8432,121.6623,83.44,79,100,2.73,overcast clouds
313,Namibe,AO,-15.1961,12.1522,68.29,72,80,2.86,broken clouds
314,Rocky Mountain House,CA,52.3668,-114.9188,29.95,86,100,3.44,overcast clouds
315,Umkomaas,ZA,-30.2067,30.7978,72.82,71,43,8.46,scattered clouds
316,Labrea,BR,-7.2586,-64.7981,72.9,99,100,2.95,overcast clouds
317,Norman Wells,CA,65.282,-126.8329,-32.76,68,20,2.3,few clouds
318,Aden,YE,12.7794,45.0367,82.27,60,0,9.91,clear sky
319,Jiayuguan,CN,39.8167,98.3,28.6,50,100,18.79,overcast clouds
320,Kuybyshevo,RU,47.8123,38.9073,45.3,97,92,4.65,overcast clouds
321,Salinopolis,BR,-0.6136,-47.3561,79.27,81,22,7.63,few clouds
322,Linjiang,CN,41.8069,126.9078,39.81,53,75,2.46,broken clouds
323,Clearwater,US,27.9659,-82.8001,58.91,79,1,0.0,clear sky
324,Morondava,MG,-20.2833,44.2833,79.45,50,0,6.42,clear sky
325,Bilibino,RU,68.0546,166.4372,-21.96,96,71,4.14,broken clouds
326,Deputatskiy,RU,69.3,139.9,-8.61,96,100,5.26,overcast clouds
327,Havoysund,NO,70.9963,24.6622,18.48,83,73,17.47,broken clouds
328,Tromso,NO,69.6496,18.957,19.42,63,0,16.11,clear sky
329,Zhigansk,RU,66.7697,123.3711,-8.21,96,99,6.85,overcast clouds
330,Olafsvik,IS,64.8945,-23.7142,36.46,98,100,12.55,light rain
331,Dalian,CN,38.9122,121.6022,53.53,62,20,11.18,few clouds
332,Hofn,IS,64.2539,-15.2082,30.96,57,100,9.19,overcast clouds
333,Malangali,TZ,-8.5667,34.85,73.6,54,76,11.68,broken clouds
334,Kamenskiy,RU,50.8855,45.488,34.97,98,100,12.73,overcast clouds
335,Fallon,US,39.4735,-118.7774,33.67,55,1,0.0,clear sky
336,Ancud,CL,-41.8697,-73.8203,49.53,87,34,3.62,scattered clouds
337,Hasaki,JP,35.7333,140.8333,59.29,41,1,14.61,clear sky
338,Iwanai,JP,42.9744,140.5089,40.75,80,15,5.97,few clouds
339,Sorland,NO,67.667,12.6934,33.87,75,100,5.75,light rain
340,Mandali,IQ,33.7499,45.5541,67.5,36,97,12.82,overcast clouds
341,Pedernales,DO,18.0384,-71.744,77.36,76,51,3.53,broken clouds
342,Weligama,LK,5.9667,80.4167,81.9,75,95,6.04,overcast clouds
343,Popondetta,PG,-8.7537,148.2534,88.09,60,52,5.55,broken clouds
344,Akureyri,IS,65.6835,-18.0878,30.13,74,90,10.36,overcast clouds
345,Nikolskoye,RU,59.7035,30.7861,28.29,93,100,10.33,light snow
346,Sakakah,SA,29.9697,40.2064,56.77,41,14,3.78,few clouds
347,Mochalishche,RU,56.3306,48.3547,29.17,97,100,13.51,snow
348,Sibut,CF,5.718,19.0739,75.09,46,88,2.95,overcast clouds
349,Ahipara,NZ,-35.1667,173.1667,66.15,71,92,3.24,overcast clouds
350,Anori,BR,-3.7728,-61.6442,74.23,94,70,2.21,broken clouds
351,Linda,US,39.1277,-121.5508,56.88,84,1,4.61,mist
352,Nobres,BR,-14.7203,-56.3275,74.77,85,100,2.86,overcast clouds
353,Carlet,ES,39.2333,-0.5167,39.65,48,49,15.86,scattered clouds
354,Gaomi,CN,36.3833,119.7528,56.98,52,98,10.94,overcast clouds
355,Pinega,RU,64.7001,43.3936,0.95,99,100,5.17,overcast clouds
356,Tezu,IN,27.9167,96.1667,79.39,29,0,3.58,clear sky
357,Charleston,US,32.7766,-79.9309,44.78,86,1,0.0,clear sky
358,Manzanillo,CU,20.3433,-77.1167,67.62,86,3,7.05,clear sky
359,Ures,MX,29.4333,-110.4,61.72,56,10,2.04,clear sky
360,Avera,US,33.194,-82.5271,48.07,46,99,6.98,overcast clouds
361,Helong,CN,42.5397,128.9972,43.9,49,28,3.4,scattered clouds
362,Mirnyy,RU,62.5353,113.9611,-1.08,94,100,7.94,overcast clouds
363,Atlantis,ZA,-33.5667,18.4834,61.09,96,100,10.71,light rain
364,Luderitz,NA,-26.6481,15.1594,64.6,68,40,7.4,scattered clouds
365,Kondinskoye,RU,59.6481,67.41,21.24,95,72,7.25,broken clouds
366,Hammerfest,NO,70.6634,23.6821,18.05,67,55,14.97,broken clouds
367,Krasnogorskiy,RU,54.6025,61.231,18.97,69,34,9.06,scattered clouds
368,Nabire,ID,-3.3667,135.4833,80.49,78,99,6.82,overcast clouds
369,Gizo,SB,-8.103,156.8419,84.74,71,70,7.63,light rain
370,Sioux Lookout,CA,50.1001,-91.917,28.47,86,90,11.5,light snow
371,Faya,SA,18.3851,42.4509,57.31,32,0,7.2,clear sky
372,Yumen,CN,40.2833,97.2,26.82,56,98,32.55,overcast clouds
373,Sungurlare,BG,42.7667,26.7833,51.66,97,98,2.93,overcast clouds
374,Cap Malheureux,MU,-19.9842,57.6142,84.69,65,3,10.13,clear sky
375,Paamiut,GL,61.994,-49.6678,37.17,95,100,15.7,light rain
376,Bonthe,SL,7.5264,-12.505,79.48,79,32,4.14,scattered clouds
377,Lagos,NG,6.5833,3.75,79.12,93,88,1.03,overcast clouds
378,Kaseda,JP,31.4167,130.3167,60.03,46,6,4.03,clear sky
379,Povorino,RU,51.1945,42.2457,39.38,95,100,9.98,overcast clouds
380,Itarema,BR,-2.9248,-39.9167,80.08,78,56,10.85,broken clouds
381,Noumea,NC,-22.2763,166.4572,78.78,80,90,16.06,light rain
382,Meulaboh,ID,4.1363,96.1285,79.72,86,92,12.08,overcast clouds
383,Gisborne,NZ,-38.6533,178.0042,64.65,77,100,3.8,overcast clouds
384,Providencia,MX,28.7167,-111.5833,69.85,54,31,8.72,scattered clouds
385,Kawalu,ID,-7.3817,108.2082,81.64,74,85,5.48,overcast clouds
386,Santa Helena,BR,-2.2311,-45.3,73.72,97,58,2.26,broken clouds
387,Alofi,NU,-19.0595,-169.9187,76.89,94,98,14.97,overcast clouds
388,Pacific Grove,US,36.6177,-121.9166,55.51,58,1,3.44,clear sky
389,Salinas,US,36.6777,-121.6555,55.92,60,1,0.0,clear sky
390,Hovd,MN,48.0056,91.6419,22.93,20,14,2.04,few clouds
391,Samarai,PG,-10.6167,150.6667,83.52,74,100,8.32,overcast clouds
392,Shache,CN,38.4167,77.2406,35.82,31,72,3.89,broken clouds
393,La Crosse,US,43.8014,-91.2396,31.93,64,1,0.0,clear sky
394,Mackay,AU,-21.15,149.2,82.38,78,75,14.97,broken clouds
395,Skibbereen,IE,51.55,-9.2667,39.0,94,100,4.54,overcast clouds
396,Simbahan,PH,6.3032,120.5836,83.03,73,100,4.38,overcast clouds
397,Digras,IN,20.1167,77.7167,79.27,27,62,10.47,broken clouds
398,Quelimane,MZ,-17.8786,36.8883,71.55,83,40,0.0,scattered clouds
399,Gubkinskiy,RU,64.434,76.5026,0.48,96,86,13.89,overcast clouds
400,Bandarbeyla,SO,9.4942,50.8122,81.97,70,90,17.56,overcast clouds
401,Yamada,JP,39.4667,141.95,47.19,50,49,9.06,scattered clouds
402,Dulce Grande,MX,23.0,-102.1667,57.54,47,98,7.36,overcast clouds
403,Matagami,CA,49.7502,-77.6328,10.51,100,90,8.05,light snow
404,Muisne,EC,0.6,-80.0333,74.86,87,97,6.58,overcast clouds
405,Biltine,TD,14.5333,20.9167,72.73,17,3,15.9,clear sky
406,Batticaloa,LK,7.7102,81.6924,83.62,74,36,7.23,heavy intensity rain
407,Kikwit,CD,-5.041,18.8162,70.75,96,99,1.43,light rain
408,Sao Felix Do Xingu,BR,-6.6447,-51.995,70.25,97,95,0.94,overcast clouds
409,Lorengau,PG,-2.0226,147.2712,85.62,67,100,7.65,overcast clouds
410,Vardo,NO,70.3705,31.1107,23.23,77,26,12.82,scattered clouds
411,Atar,MR,20.5169,-13.0499,63.52,40,92,14.58,overcast clouds
412,Tecpan,GT,14.7623,-90.9947,51.12,98,86,4.61,overcast clouds
413,Kinkala,CG,-4.3614,14.7644,71.91,94,50,0.38,scattered clouds
414,Luzhou,CN,28.8724,105.4405,58.86,70,94,3.49,overcast clouds
415,Kamenka,RU,51.3223,42.7678,38.21,95,100,11.16,overcast clouds
416,Bridlington,GB,54.0831,-0.1919,32.18,84,100,23.91,snow
417,Husavik,IS,66.0449,-17.3389,30.11,86,100,9.93,overcast clouds
418,Kelso,US,46.1468,-122.9084,62.49,94,90,9.22,overcast clouds
419,Vestmannaeyjar,IS,63.4427,-20.2734,37.81,75,100,4.52,light rain
420,Southbridge,US,42.0751,-72.0334,27.72,74,33,8.57,scattered clouds
421,Koslan,RU,63.4564,48.8989,15.55,95,100,8.81,light snow
422,Steamboat Springs,US,40.485,-106.8317,35.1,79,1,5.75,clear sky
423,Dogondoutchi,NE,13.6393,4.0287,73.22,15,96,9.44,overcast clouds
424,Bhinmal,IN,25.0,72.25,83.84,22,65,5.39,broken clouds
425,Farmington,US,36.7281,-108.2187,33.19,64,1,6.91,clear sky
426,Vila Velha,BR,-20.3297,-40.2925,73.35,83,0,9.22,clear sky
427,Nokha,IN,27.6,73.4167,80.02,18,26,6.85,scattered clouds
428,Ambon,ID,-3.6954,128.1814,84.34,74,40,5.75,scattered clouds
429,Plainview,US,40.7765,-73.4673,35.69,51,20,4.61,few clouds
430,Havre-Saint-Pierre,CA,50.2334,-63.5986,35.6,100,90,6.91,snow
431,Honningsvag,NO,70.9821,25.9704,23.29,75,45,21.63,scattered clouds
432,Palmer,US,42.1584,-72.3287,29.01,59,1,5.75,clear sky
433,Alyangula,AU,-13.8483,136.4192,82.27,74,90,10.36,overcast clouds
434,Wajir,KE,1.7471,40.0573,78.8,69,68,10.47,light rain
435,Cururupu,BR,-1.8283,-44.8683,75.69,91,64,3.0,broken clouds
436,Ilulissat,GL,69.2167,-51.1,24.82,58,100,16.11,overcast clouds
437,Kysyl-Syr,RU,63.8986,122.7617,0.23,94,100,8.01,overcast clouds
438,Dingle,PH,10.9995,122.6711,84.76,75,97,11.34,overcast clouds
439,Narsaq,GL,60.9167,-46.05,39.42,100,100,0.51,light rain
440,Tabriz,IR,38.08,46.2919,40.46,56,40,6.91,scattered clouds
441,Fort-Shevchenko,KZ,44.5086,50.263,45.0,57,86,15.39,overcast clouds
442,Cape Canaveral,US,28.4058,-80.6048,60.78,88,1,5.75,clear sky
443,Teguise,ES,29.0605,-13.564,57.42,82,0,9.22,clear sky
444,Broome,US,42.2506,-75.833,27.37,74,90,4.61,light snow
445,Sindor,RU,62.8629,51.8905,20.03,95,100,7.2,light snow
446,Santa Marta,CO,11.2408,-74.199,80.65,74,40,2.3,scattered clouds
447,Hirado,JP,33.3597,129.5531,58.35,43,21,5.57,few clouds
448,Powell River,CA,49.8496,-124.5361,48.2,95,100,3.47,overcast clouds
449,Tucurui,BR,-3.7661,-49.6725,73.49,95,86,2.51,overcast clouds
450,Ilek,RU,51.5271,53.3831,27.0,80,97,10.2,overcast clouds
451,Kalmunai,LK,7.4167,81.8167,84.06,74,40,8.23,scattered clouds
452,El Dorado,US,38.7666,-120.5177,53.62,49,28,6.06,scattered clouds
453,Ketchikan,US,55.3422,-131.6461,46.87,87,90,16.11,light rain
454,Jumla,NP,29.2747,82.1838,59.07,21,0,6.29,clear sky
455,Bembibre,ES,42.6177,-6.4155,33.26,97,81,7.29,light snow
456,Byron Bay,AU,-28.65,153.6167,75.15,79,95,13.04,overcast clouds
457,Sarakhs,IR,36.5449,61.1577,55.96,36,2,4.56,clear sky
458,Kruisfontein,ZA,-34.0033,24.7314,73.47,44,23,13.33,few clouds
459,Mogwase,ZA,-25.185,27.2665,67.62,55,76,7.81,broken clouds
460,Sarahan,IN,31.5167,77.8,54.68,18,0,3.74,clear sky
461,Hamilton,US,39.1834,-84.5333,45.45,74,1,3.44,clear sky
462,Newport,GB,51.5877,-2.9984,35.6,60,93,12.26,overcast clouds
463,Funtua,NG,11.5233,7.3081,65.73,24,97,8.79,overcast clouds
464,Oga,IT,46.4631,10.347,27.68,96,100,6.24,snow
465,Hirara,JP,24.8,125.2833,73.26,73,75,19.57,broken clouds
466,Ayr,GB,55.4627,-4.6339,33.78,80,20,5.75,moderate rain
467,Christchurch,NZ,-43.5333,172.6333,57.4,88,90,14.97,overcast clouds
468,Kanniyakumari,IN,8.0833,77.5667,79.79,79,100,9.44,overcast clouds
469,Le Port,RE,-20.9373,55.2919,82.36,77,84,5.28,light rain
470,Turukhansk,RU,65.8167,87.9833,5.0,94,100,12.33,light snow
471,Ouadda,CF,8.0777,22.4007,73.9,29,76,5.23,broken clouds
472,Tazovskiy,RU,67.4667,78.7,0.07,96,100,5.5,overcast clouds
473,Tadine,NC,-21.55,167.8833,77.16,83,65,16.55,broken clouds
474,Abha,SA,18.2164,42.5053,57.02,41,0,5.75,clear sky
475,Lamu,KE,-2.2717,40.902,80.82,73,92,1.25,light rain
476,Pisco,PE,-13.7,-76.2167,62.65,88,0,0.0,clear sky
477,Izhevskoye,RU,54.5567,40.8703,35.78,99,100,10.54,overcast clouds
478,Verkhoyansk,RU,67.5447,133.385,-7.29,100,100,1.63,overcast clouds
479,Port Hedland,AU,-20.3167,118.5667,93.25,38,6,27.63,clear sky
480,Huarmey,PE,-10.0681,-78.1522,66.15,87,99,9.86,overcast clouds
481,Kupang,ID,-10.1667,123.5833,84.63,72,97,2.26,overcast clouds
482,Wanning,CN,18.8003,110.3967,74.21,80,99,17.05,overcast clouds
483,Vung Tau,VN,10.346,107.0843,81.66,71,96,5.68,light rain
484,Kula,TR,38.5473,28.6498,55.35,74,65,11.03,broken clouds
485,Casablanca,MA,33.5928,-7.6192,52.02,60,89,12.84,overcast clouds
486,Doka,SD,13.5167,35.7667,83.41,43,0,12.24,clear sky
487,Taoudenni,ML,22.6783,-3.9836,63.93,35,21,10.04,few clouds
488,Ewo,CG,-0.8725,14.8206,75.18,84,87,1.21,overcast clouds
489,Padang,ID,-0.9492,100.3543,85.69,62,98,6.24,overcast clouds
490,Astorga,BR,-23.2325,-51.6656,70.2,79,0,2.06,clear sky
491,Gondanglegi,ID,-7.7479,112.0132,81.99,74,99,14.18,overcast clouds
492,Ano Mera,GR,37.45,25.4,62.67,77,25,23.26,scattered clouds
493,Denpasar,ID,-8.65,115.2167,74.86,94,75,1.14,moderate rain
494,Paravur,IN,8.7833,76.7,84.22,86,100,4.9,overcast clouds
495,Shubarshi,KZ,48.5872,57.1869,25.84,75,97,12.24,overcast clouds
496,Cherskiy,RU,68.75,161.3,-17.45,89,36,2.13,scattered clouds
497,Ndele,CF,8.4109,20.6473,74.16,26,92,2.89,overcast clouds
498,Poum,NC,-20.2333,164.0167,79.83,78,17,11.39,few clouds
499,Weymouth,US,42.2209,-70.9398,30.18,50,20,12.66,few clouds
500,Venosa,IT,40.9613,15.8149,49.39,76,57,16.31,broken clouds
501,Lasa,IT,46.6166,10.7002,35.06,95,100,6.69,moderate rain
502,Hami,CN,42.8,93.45,28.17,60,21,5.26,few clouds
503,Pitimbu,BR,-7.4706,-34.8086,75.79,69,83,8.79,broken clouds
504,Freeport,US,40.6576,-73.5832,36.18,50,20,4.61,few clouds
505,Miri,MY,4.4148,114.0089,89.74,58,40,10.36,scattered clouds
506,Abu Kamal,SY,34.4506,40.9171,63.52,47,86,5.79,overcast clouds
507,Cherusti,RU,55.5498,40.0107,37.38,95,99,10.38,overcast clouds
508,Praia Da Vitoria,PT,38.7333,-27.0667,59.25,82,75,5.59,broken clouds
509,Nouadhibou,MR,20.931,-17.0347,65.3,62,0,23.49,clear sky
510,Edd,ER,13.9297,41.6925,85.91,51,0,5.46,clear sky
511,Ziro,IN,27.6333,93.8333,56.14,31,0,2.35,clear sky
512,Grand Gaube,MU,-20.0064,57.6608,84.6,64,2,9.71,clear sky
513,Eureka,US,40.8021,-124.1637,50.61,94,68,2.64,broken clouds
514,Luoyang,CN,34.6836,112.4536,56.41,43,34,2.59,scattered clouds
515,Sri Aman,MY,1.2376,111.4621,86.05,74,40,2.3,scattered clouds
516,Nuuk,GL,64.1835,-51.7216,43.41,93,90,26.46,light snow
517,Kribi,CM,2.95,9.9167,78.17,86,99,2.75,light rain
518,Sibolga,ID,1.7427,98.7792,80.67,82,100,2.24,overcast clouds
519,Dunmore East,IE,52.1514,-6.9861,38.75,86,100,9.13,overcast clouds
520,Alugan,PH,12.2188,125.4808,82.15,82,100,10.18,overcast clouds
521,Mount Gambier,AU,-37.8333,140.7667,75.11,46,1,14.97,clear sky
522,Stephenville,US,32.2207,-98.2023,52.14,93,90,4.61,overcast clouds
523,Jacareacanga,BR,-6.2222,-57.7528,73.74,97,98,0.72,light rain
524,Nalut,LY,30.3333,10.85,70.12,24,82,24.56,broken clouds
525,Goderich,CA,43.7501,-81.7165,26.92,93,100,5.75,light snow
526,Pangnirtung,CA,66.1451,-65.7125,17.35,75,100,7.81,overcast clouds
527,Swan Hill,AU,-35.3378,143.5544,81.14,23,6,5.23,clear sky
528,Kemin,KG,42.7846,75.6892,42.82,32,0,12.24,clear sky
529,Acarau,BR,-2.8856,-40.12,80.24,77,58,10.94,broken clouds
530,Comodoro Rivadavia,AR,-45.8667,-67.5,60.66,29,0,18.41,clear sky
531,Wagga Wagga,AU,-35.1167,147.3667,73.81,40,40,5.75,scattered clouds
532,Gillette,US,44.2911,-105.5022,38.32,56,1,17.27,clear sky
533,Akdepe,TM,42.0551,59.3788,32.09,33,30,7.11,scattered clouds
534,Presidencia Roque Saenz Pena,AR,-26.7852,-60.4388,67.35,91,98,7.07,moderate rain
535,Sabla,NG,12.7525,4.7077,70.54,19,70,8.77,broken clouds
536,Puerto Madryn,AR,-42.7692,-65.0385,56.34,78,0,2.08,clear sky
537,Klyuchi,RU,52.2667,79.1667,21.22,80,63,11.86,broken clouds
538,Saint-Pierre,RE,-21.3393,55.4781,82.04,88,75,14.97,thunderstorm
539,Surt,LY,31.2089,16.5887,72.39,43,99,15.08,overcast clouds
540,Limon,CR,10.0,-83.0333,75.96,83,40,5.82,scattered clouds
541,Marquette,US,46.5333,-87.6335,26.04,91,100,6.69,overcast clouds
542,Ardahan,TR,41.1087,42.7022,34.86,85,100,3.76,overcast clouds
543,San Juan,AR,-31.5375,-68.5364,64.89,49,11,15.99,few clouds
544,Russell,US,32.3502,-85.1999,49.23,75,90,3.44,overcast clouds
545,Szabadbattyan,HU,47.119,18.3682,40.86,99,100,6.15,overcast clouds
546,Kharp,RU,66.8014,65.8081,-11.2,92,4,7.14,clear sky
547,Haldibari,IN,26.3333,88.7667,78.19,42,8,3.69,clear sky
548,Umm Kaddadah,SD,13.6017,26.6876,74.14,18,7,19.75,clear sky
549,Yuryevets,RU,57.3201,43.1041,35.4,97,100,17.2,overcast clouds
550,Quatre Cocos,MU,-20.2078,57.7625,84.31,59,3,9.37,clear sky
551,Cozumel,MX,20.5083,-86.9458,67.98,72,28,8.81,scattered clouds
552,Timizart,DZ,36.8,4.2667,48.54,70,100,13.38,overcast clouds
553,Wiang Sa,TH,8.6359,99.3666,85.62,72,97,8.79,overcast clouds
554,Ternate,ID,0.8,127.4,84.61,74,73,6.82,broken clouds
555,Madang,PG,-5.2246,145.7966,85.03,69,40,6.15,scattered clouds
556,Buchanan,LR,5.8808,-10.0467,78.13,86,57,4.41,light rain
557,Ocampo,MX,21.65,-101.5,51.82,56,12,4.61,few clouds
558,Fatezh,RU,52.0891,35.8632,40.98,97,70,5.97,broken clouds
559,Uhlove,UA,44.8215,33.6045,56.34,79,89,12.03,overcast clouds
560,Boden,SE,65.8252,21.6886,6.8,89,95,3.38,light snow
561,Longkou,CN,37.6508,120.3286,54.19,66,100,10.22,overcast clouds
562,San Cristobal,VE,7.7669,-72.225,68.18,88,29,1.36,scattered clouds
563,Haverfordwest,GB,51.8017,-4.9691,38.79,72,100,17.85,overcast clouds
564,Kodino,RU,63.7198,39.6447,8.04,94,100,6.22,overcast clouds
565,Maniitsoq,GL,65.4167,-52.9,35.47,98,100,9.91,moderate rain
566,Marapanim,BR,-0.7175,-47.6997,74.93,91,6,2.66,clear sky
567,Snezhnogorsk,RU,69.1933,33.2531,-16.82,92,75,9.04,broken clouds
568,Juruti,BR,-2.1522,-56.0922,75.65,83,94,1.79,overcast clouds
569,Whyalla,AU,-33.0333,137.5833,80.49,24,0,11.5,clear sky
570,Ulaanbaatar,MN,47.9077,106.8832,12.33,67,0,4.47,clear sky
571,Middelkerke,BE,51.1558,2.8418,42.82,80,75,14.97,moderate rain
572,Kahramanmaras,TR,38.0,37.0,43.43,74,100,7.29,overcast clouds
573,Senneterre,CA,48.3835,-77.2328,5.22,98,95,3.67,overcast clouds
574,Paulo Afonso,BR,-9.4061,-38.2147,74.88,81,76,4.52,broken clouds
575,Senno,RU,59.5336,33.9167,24.46,95,100,7.92,light snow
576,Ozieri,IT,40.586,9.0012,49.62,90,86,5.1,overcast clouds
577,Astoria,US,46.1879,-123.8313,55.29,94,90,18.41,mist
578,Royan,FR,45.6285,-1.0281,42.78,64,70,20.83,broken clouds
579,Richards Bay,ZA,-28.783,32.0377,74.48,60,57,18.97,broken clouds
580,Olkusz,PL,50.2813,19.565,34.0,99,100,3.47,overcast clouds
581,Necochea,AR,-38.5473,-58.7368,59.74,96,100,11.9,light rain
582,Howard Springs,AU,-12.497,131.047,91.31,51,77,6.78,broken clouds
583,Evensk,RU,61.95,159.2333,13.55,94,100,7.87,light snow
584,Peniche,PT,39.3558,-9.3811,49.48,68,63,22.93,broken clouds
585,Trairi,BR,-3.2778,-39.2689,80.94,73,86,8.79,overcast clouds
586,Butterworth,MY,5.3991,100.3638,87.84,74,40,4.61,scattered clouds
587,Santiago De Chuco,PE,-8.15,-78.1833,51.35,85,99,0.96,overcast clouds
588,Raudeberg,NO,61.9875,5.1352,21.87,57,37,8.88,scattered clouds
589,Acajutla,SV,13.5928,-89.8275,76.51,67,19,7.76,few clouds
590,Puri,IN,19.8,85.85,79.32,43,79,11.9,broken clouds
591,Kalulushi,ZM,-12.8378,28.0919,69.37,65,53,7.65,broken clouds
592,Bang Saphan,TH,11.2126,99.5117,87.75,63,28,13.8,scattered clouds
593,Teknaf,BD,20.8624,92.3058,81.36,53,60,6.62,broken clouds
594,Cedar City,US,37.6775,-113.0619,36.57,41,1,0.0,clear sky
595,Naica,MX,27.85,-105.4833,53.94,56,70,5.59,broken clouds
596,Pirajui,BR,-21.9986,-49.4572,68.29,58,0,2.93,clear sky
597,Kushmurun,KZ,52.4503,64.6311,12.47,87,7,8.55,clear sky
598,Calvinia,ZA,-31.4707,19.776,53.65,87,99,7.56,overcast clouds
599,Houma,US,29.5958,-90.7195,55.4,65,100,5.91,overcast clouds
600,Hargeysa,SO,9.56,44.065,70.23,55,35,14.0,scattered clouds
601,Bafq,IR,31.6128,55.4107,61.05,42,22,2.08,few clouds
602,Kudahuvadhoo,MV,2.6708,72.8944,81.52,71,99,17.02,overcast clouds
603,Champerico,GT,14.3,-91.9167,77.79,78,93,4.09,overcast clouds
604,Pyay,MM,18.8167,95.2167,84.29,59,4,8.77,clear sky
605,Ardakan,IR,32.31,54.0175,59.13,41,35,2.82,scattered clouds
606,Petropavlovsk-Kamchatskiy,RU,53.0452,158.6483,19.99,53,0,6.71,clear sky
607,Grand Island,US,40.925,-98.342,38.35,64,1,8.05,clear sky
608,Hobyo,SO,5.3505,48.5268,82.8,72,65,12.26,broken clouds
609,Veraval,IN,20.9,70.3667,83.46,42,96,5.3,overcast clouds
610,Tukrah,LY,32.5341,20.5791,69.42,56,79,7.49,broken clouds
611,Leshukonskoye,RU,64.8989,45.7622,4.21,96,100,5.84,overcast clouds
612,Port Hardy,CA,50.6996,-127.4199,48.2,93,90,18.41,moderate rain
613,Port-Gentil,GA,-0.7193,8.7815,76.96,94,40,2.3,scattered clouds
614,Kuloy,RU,61.0305,42.4925,27.18,98,100,5.17,light snow
615,Galeana,MX,24.8333,-100.0667,55.17,77,99,1.81,overcast clouds
616,Stornoway,GB,58.2093,-6.3865,35.56,93,40,12.66,scattered clouds
617,Urusha,RU,54.05,122.9,14.54,50,100,5.01,overcast clouds
618,Bone,DE,51.9669,12.1396,29.07,94,66,5.06,broken clouds
619,Sinnamary,GF,5.3833,-52.95,77.02,88,77,8.23,broken clouds
620,Srivardhan,IN,18.0333,73.0167,85.48,41,73,4.52,broken clouds
621,Golub-Dobrzyn,PL,53.1109,19.0538,31.21,92,71,7.4,broken clouds
622,Ilhabela,BR,-23.7781,-45.3581,72.25,85,40,2.06,scattered clouds
623,Otjimbingwe,NA,-22.35,16.1333,73.38,21,0,2.75,clear sky
624,Tabory,RU,58.5198,64.5495,25.81,91,84,7.99,broken clouds
625,Nantucket,US,41.2835,-70.0995,33.91,47,1,11.5,clear sky
626,Tilichiki,RU,60.4667,166.1,21.79,92,100,13.6,light snow
627,Maraa,BR,-1.8333,-65.3667,72.99,96,70,2.33,broken clouds
628,Matamoros,MX,25.5333,-103.25,54.25,62,96,1.5,overcast clouds
629,San Prisco,IT,41.0871,14.2782,59.27,77,75,15.73,broken clouds
630,Dalvik,IS,65.9702,-18.5286,30.13,86,100,8.14,overcast clouds
631,General Pico,AR,-35.6566,-63.7568,56.46,96,100,6.04,overcast clouds
632,Araquari,BR,-26.3703,-48.7211,69.98,94,67,2.26,broken clouds
633,Qiyang,CN,26.5911,111.8474,63.99,46,75,3.15,broken clouds
634,Kristiansund,NO,63.1115,7.732,21.85,79,3,6.91,clear sky
635,Vrangel,RU,42.7297,133.0839,40.28,54,1,7.67,clear sky
636,Santa Maria Del Oro,MX,25.9333,-105.3667,55.04,65,100,5.55,overcast clouds
637,Vila,PT,42.0304,-8.1588,29.28,91,9,4.79,clear sky
638,Sokoni,TZ,-6.4333,39.55,82.26,79,48,9.06,moderate rain
639,Castrillon,ES,43.3979,-6.7922,43.34,97,100,4.21,overcast clouds
640,Ipora,BR,-16.4419,-51.1178,68.74,95,57,1.01,broken clouds
641,Gorontalo,ID,0.5412,123.0595,83.66,83,73,2.77,broken clouds
642,Amahai,ID,-3.3333,128.9167,83.12,75,98,2.71,overcast clouds
643,Muyezerskiy,RU,63.9333,31.65,5.95,98,95,4.05,overcast clouds
644,Anloga,GH,5.7947,0.8973,79.02,79,100,6.31,overcast clouds
645,Inhambane,MZ,-23.865,35.3833,76.98,57,20,9.22,few clouds
646,Copiapo,CL,-27.3667,-70.3333,55.09,41,0,2.53,clear sky
647,Sao Jose Da Coroa Grande,BR,-8.8978,-35.1478,79.84,70,100,8.66,overcast clouds
648,Portree,GB,57.4129,-6.1942,36.05,96,100,3.89,overcast clouds
649,Ust-Barguzin,RU,53.45,108.9833,18.91,72,97,3.76,overcast clouds
650,Roebourne,AU,-20.7833,117.1333,94.23,33,0,19.66,clear sky
651,Salo,IT,45.6086,10.531,42.78,91,99,2.62,overcast clouds
652,Milkovo,RU,54.7167,158.6167,-5.96,94,41,2.1,scattered clouds
653,Vanavara,RU,60.34,102.2797,9.82,94,99,4.09,overcast clouds
654,Mezen,RU,65.8522,44.24,3.92,93,89,7.16,overcast clouds
655,Lamesa,US,32.7376,-101.951,45.66,89,53,10.76,broken clouds
656,Dashitou,CN,43.3067,128.5114,38.5,50,74,6.89,broken clouds
657,Esqueda,MX,30.7167,-109.5833,51.64,59,0,2.51,clear sky
658,Sangueya,GN,10.7,-14.3667,74.97,94,89,1.21,overcast clouds
659,Pirovskoye,RU,57.6267,92.2658,22.35,92,100,10.98,overcast clouds
660,Mungwi,ZM,-10.1732,31.3694,68.32,74,66,7.4,broken clouds
661,Keningau,MY,5.3378,116.1602,86.45,71,91,3.44,overcast clouds
662,Khor,RU,47.8861,134.9464,24.39,89,46,4.36,scattered clouds
663,Nikolsk,RU,53.7189,46.0712,33.51,98,100,13.62,light snow
664,Sisimiut,GL,66.9395,-53.6735,27.32,93,100,8.28,light snow
665,Thio,NC,-21.6167,166.2167,76.96,85,67,13.15,broken clouds
666,Vorontsovka,RU,50.6132,40.3549,42.15,97,100,7.16,overcast clouds
667,Conceicao Do Araguaia,BR,-8.2578,-49.2647,72.34,96,86,2.42,overcast clouds
668,Sao Filipe,CV,14.8961,-24.4956,76.39,73,85,9.69,overcast clouds
669,Catuday,PH,16.2923,119.8062,83.8,64,78,14.65,broken clouds
670,Krasnogorsk,RU,55.8225,37.3181,41.34,93,90,11.18,overcast clouds
671,Guangyuan,CN,32.442,105.823,55.83,67,100,1.21,overcast clouds
672,Ahuimanu,US,21.4447,-157.8378,78.51,69,75,6.91,broken clouds
673,Healdsburg,US,38.6105,-122.8692,55.36,87,1,0.0,clear sky
674,Highland,US,34.1283,-117.2086,61.18,19,1,4.61,clear sky
675,Cabedelo,BR,-6.9811,-34.8339,75.87,70,82,9.78,broken clouds
676,Khetia,IN,21.6667,74.5833,83.61,29,72,6.93,broken clouds
677,Pombia,IT,45.653,8.6336,38.91,93,0,9.22,clear sky
678,Imeni Poliny Osipenko,RU,52.4201,136.4853,16.92,93,100,2.98,overcast clouds
679,Preobrazheniye,RU,42.9019,133.9064,43.03,44,0,10.92,clear sky
680,Mugur-Aksy,RU,50.35,90.5,15.73,76,85,6.24,overcast clouds
681,Broken Hill,AU,-31.95,141.4333,74.91,31,90,16.11,overcast clouds
682,Saint-Augustin,CA,51.226,-58.6502,37.11,96,85,15.39,overcast clouds
683,Griffith,US,41.5284,-87.4237,36.09,69,1,10.36,clear sky
684,Omama,JP,36.4333,139.2833,50.2,40,7,8.7,clear sky
685,Fare,PF,-16.7,-151.0167,80.91,75,29,14.79,scattered clouds
686,Paka,MY,4.6374,103.4368,87.73,66,40,6.91,scattered clouds
687,Sola,VU,-13.8833,167.55,82.29,69,61,4.81,broken clouds
688,Cacule,BR,-14.5033,-42.2222,67.77,98,100,1.21,moderate rain
689,Sur,OM,22.5667,59.5289,80.73,40,10,3.49,clear sky
690,Ust-Nera,RU,64.5667,143.2,-11.24,97,100,5.46,overcast clouds
691,Hambantota,LK,6.1241,81.1185,82.74,94,40,5.75,scattered clouds
692,Shishou,CN,29.7226,112.419,64.76,34,7,5.7,clear sky
693,Hapur,IN,28.7167,77.7833,71.76,37,3,2.71,clear sky
694,Mongo,TD,12.1844,18.693,75.6,16,61,4.21,broken clouds
695,Puerto Baquerizo Moreno,EC,-0.9,-89.6,68.16,81,60,10.38,broken clouds
